[
  {
    "id": 1,
    "name": "ПВЗ Яндекс Маркет",
    "address": "Москва, ул. Тверская, 1",
    "lat": 55.757,
    "lng": 37.615
  },
  {
    "id": 2,
    "name": "ПВЗ Яндекс Маркет",
    "address": "Москва, Ленинский проспект, 45",
    "lat": 55.703,
    "lng": 37.576
  },
  {
    "id": 3,
    "name": "ПВЗ Яндекс Маркет",
    "address": "Москва, проспект Мира, 119",
    "lat": 55.828,
    "lng": 37.636
  },
  {
    "id": 4,
    "name": "ПВЗ Яндекс Маркет",
    "address": "Москва, Кутузовский проспект, 48",
    "lat": 55.733,
    "lng": 37.491
  },
  {
    "id": 5,
    "name": "ПВЗ Яндекс Маркет",
    "address": "Санкт-Петербург, Невский проспект, 10",
    "lat": 59.935,
    "lng": 30.325
  },
  {
    "id": 6,
    "name": "ПВЗ Яндекс Маркет",
    "address": "Санкт-Петербург, Лиговский проспект, 30",
    "lat": 59.927,
    "lng": 30.360
  },
  {
    "id": 7,
    "name": "ПВЗ Яндекс Маркет",
    "address": "Казань, ул. Баумана, 50",
    "lat": 55.792,
    "lng": 49.112
  },
  {
    "id": 8,
    "name": "ПВЗ Яндекс Маркет",
    "address": "Екатеринбург, ул. Вайнера, 10",
    "lat": 56.838,
    "lng": 60.597
  },
  {
    "id": 9,
    "name": "ПВЗ Яндекс Маркет",
    "address": "Новосибирск, Красный проспект, 17",
    "lat": 55.028,
    "lng": 82.923
  },
  {
    "id": 10,
    "name": "ПВЗ Яндекс Маркет",
    "address": "Балашиха, ул. Реутовская, 30",
    "lat": 55.760,
    "lng": 37.935
  },
  {
    "id": 11,
    "name": "ПВЗ Яндекс Маркет",
    "address": "Москва, метро Новогиреево, Зеленый проспект, 62",
    "lat": 55.751,
    "lng": 37.817
  },
  {
    "id": 12,
    "name": "ПВЗ Яндекс Маркет",
    "address": "Нижний Новгород, ул. Большая Покровская, 20",
    "lat": 56.324,
    "lng": 43.998
  },
  {
    "id": 13,
    "name": "ПВЗ Яндекс Маркет",
    "address": "Сочи, Курортный проспект, 50",
    "lat": 43.585,
    "lng": 39.723
  },
  {
    "id": 14,
    "name": "ПВЗ Яндекс Маркет",
    "address": "Ростов-на-Дону, ул. Большая Садовая, 45",
    "lat": 47.222,
    "lng": 39.718
  },
  {
    "id": 15,
    "name": "ПВЗ Яндекс Маркет",
    "address": "Краснодар, ул. Красная, 100",
    "lat": 45.035,
    "lng": 38.975
  }
]
